{
  "entities": {
    "facilities": {
      "entityAcademyIslam": {
        "Environment Model": "f315-scene",
        "latitude": 3.132754,
        "longitude": 101.657415,
        "model": "asset/FacilitiesEntity/surau.glb",
        "name": "Academy of Islamic Studies Musolla",
        "scale": "250 250 250"
      },
      "entityAidil": {
        "Environment Model": "asset/FacultyEntity/Education.glb",
        "latitude": 3.129456,
        "longitude": 101.649293,
        "model": "asset/FacilitiesEntity/dtc.glb",
        "name": "E307",
        "scale": "250 250 250"
      },
      "entityBangunanCanseleri": {
        "Environment Model": "f315-scene",
        "latitude": 3.120445,
        "longitude": 101.657636,
        "model": "asset/FacilitiesEntity/chancelerry.glb",
        "name": "Bangunan Canseleri",
        "scale": "250 250 250"
      },
      "entityBankIslam": {
        "Environment Model": "f315-scene",
        "latitude": 3.122143,
        "longitude": 101.656503,
        "model": "asset/FacilitiesEntity/bank_islam.glb",
        "name": "Bank Islam",
        "scale": "250 250 250"
      },
      "entityDTC": {
        "Environment Model": "f315-scene",
        "latitude": 3.121436,
        "longitude": 101.65706,
        "model": "asset/FacilitiesEntity/dtc.glb",
        "name": "Dewan Tunku Canselor (DTC)",
        "scale": "250 250 250"
      },
      "entityExamHall": {
        "Environment Model": "f315-scene",
        "latitude": 3.115147,
        "longitude": 101.658086,
        "model": "asset/FacilitiesEntity/exam_hall.glb",
        "name": "Examination Hall",
        "scale": "250 250 250"
      },
      "entityKPS": {
        "Environment Model": "f315-scene",
        "latitude": 3.121125,
        "longitude": 101.655145,
        "model": "asset/FacilitiesEntity/kps.glb",
        "name": "KPS Complex",
        "scale": "250 250 250"
      },
      "entityMasjid": {
        "Environment Model": "f315-scene",
        "latitude": 3.117938,
        "longitude": 101.662769,
        "model": "asset/FacilitiesEntity/masjid.glb",
        "name": "Masjid Ar-Rahman",
        "scale": "250 250 250"
      },
      "entityPanggung": {
        "Environment Model": "f315-scene",
        "latitude": 3.121522,
        "longitude": 101.656079,
        "model": "asset/FacilitiesEntity/panggung_eks.glb",
        "name": "Panggung Eksperimen",
        "scale": "250 250 250"
      },
      "entityTemple": {
        "Environment Model": "f315-scene",
        "latitude": 3.127944,
        "longitude": 101.660709,
        "model": "asset/FacilitiesEntity/temple.glb",
        "name": "Sri Sivan Temple",
        "scale": "250 250 250"
      },
      "entityUMCentral": {
        "Environment Model": "f315-scene",
        "latitude": 3.120975,
        "longitude": 101.653585,
        "model": "asset/FacilitiesEntity/um_central.glb",
        "name": "UM Central",
        "scale": "250 250 250"
      },
      "entityUser": {
        "Environment Model": "asset/FacultyEntity/Education.glb",
        "latitude": 3.129264,
        "longitude": 101.649731,
        "model": "asset/FacilitiesEntity/um_central.glb",
        "name": "F315",
        "scale": "250 250 250"
      }
    },
    "faculties": {
      "entityAkademiIslam": {
        "Environment Model": "f315-scene",
        "latitude": 3.132609,
        "longitude": 101.65778,
        "model": "asset/FacultyEntity/AkademiPengajianIslam.glb",
        "name": "Islamic Studies Academy",
        "scale": "250 250 250"
      },
      "entityAkademiMelayu": {
        "Environment Model": "f315-scene",
        "latitude": 3.125078,
        "longitude": 101.652265,
        "model": "asset/FacultyEntity/AkademiPengajianMelayu.glb",
        "name": "Malay Studies Academy",
        "scale": "250 250 250"
      },
      "entityArts": {
        "Environment Model": "f315-scene",
        "latitude": 3.120916,
        "longitude": 101.653107,
        "model": "asset/FacultyEntity/Social_Science.glb",
        "name": "Faculty of Arts and Social Sciences",
        "scale": "250 250 250"
      },
      "entityBuiltEnvironment": {
        "Environment Model": "f315-scene",
        "latitude": 3.115871,
        "longitude": 101.655339,
        "model": "asset/FacultyEntity/Built_Environment_Entity.glb",
        "name": "Faculty of Built Environment",
        "scale": "250 250 250"
      },
      "entityBusiness": {
        "Environment Model": "f315-scene",
        "latitude": 3.118396,
        "longitude": 101.652676,
        "model": "asset/FacultyEntity/Business_Entity.glb",
        "name": "Faculty of Business and Economics",
        "scale": "250 250 250"
      },
      "entityCS": {
        "Environment Model": "f315-scene",
        "latitude": 3.127979,
        "longitude": 101.650565,
        "model": "asset/FacultyEntity/Computer_Science.glb",
        "name": "Faculty of Computer Science",
        "scale": "250 250 250"
      },
      "entityCreativeArts": {
        "Environment Model": "f315-scene",
        "latitude": 3.118616,
        "longitude": 101.653299,
        "model": "asset/FacultyEntity/Creative_Arts_Entity.glb",
        "name": "Faculty of Creative Arts",
        "scale": "250 250 250"
      },
      "entityDentistry": {
        "Environment Model": "f315-scene",
        "latitude": 3.111392,
        "longitude": 101.652523,
        "model": "asset/FacultyEntity/Dentistry.glb",
        "name": "Faculty of Dentistry",
        "scale": "250 250 250"
      },
      "entityEducation": {
        "Environment Model": "f315-scene",
        "latitude": 3.119958,
        "longitude": 101.652903,
        "model": "asset/FacultyEntity/Education.glb",
        "name": "Faculty of Education",
        "scale": "250 250 250"
      },
      "entityEngineering": {
        "Environment Model": "f315-scene",
        "latitude": 3.117802,
        "longitude": 101.65565,
        "model": "asset/FacultyEntity/Engineering.glb",
        "name": "Faculty of Engineering",
        "scale": "250 250 250"
      },
      "entityInstituteAdvancedStudies": {
        "Environment Model": "f315-scene",
        "latitude": 3.124623,
        "longitude": 101.659739,
        "model": "asset/FacultyEntity/Advance.glb",
        "name": "Institute of Advanced Studies",
        "scale": "250 250 250"
      },
      "entityLanguages": {
        "Environment Model": "f315-scene",
        "latitude": 3.122513,
        "longitude": 101.651525,
        "model": "asset/FacultyEntity/Linguistic.glb",
        "name": "Faculty of Languages",
        "scale": "250 250 250"
      },
      "entityLaw": {
        "Environment Model": "f315-scene",
        "latitude": 3.118005,
        "longitude": 101.66085,
        "model": "asset/FacultyEntity/Law.glb",
        "name": "Faculty of Law",
        "scale": "250 250 250"
      },
      "entityMedicine": {
        "Environment Model": "f315-scene",
        "latitude": 3.115828,
        "longitude": 101.653418,
        "model": "asset/FacultyEntity/Medicine.glb",
        "name": "Faculty of Medicine",
        "scale": "250 250 250"
      },
      "entityPharmacy": {
        "Environment Model": "f315-scene",
        "latitude": 3.115517,
        "longitude": 101.652362,
        "model": "asset/FacultyEntity/Pharmacy.glb",
        "name": "Faculty of Pharmacy",
        "scale": "250 250 250"
      },
      "entityPusatAsasi": {
        "Environment Model": "f315-scene",
        "latitude": 3.123262,
        "longitude": 101.659417,
        "model": "asset/FacultyEntity/Pasum.glb",
        "name": "Foundation Centre",
        "scale": "250 250 250"
      },
      "entityScience": {
        "Environment Model": "f315-scene",
        "latitude": 3.121827,
        "longitude": 101.653875,
        "model": "asset/FacultyEntity/Science.glb",
        "name": "Faculty of Science",
        "scale": "250 250 250"
      },
      "entitySport": {
        "Environment Model": "f315-scene",
        "latitude": 3.130788,
        "longitude": 101.660023,
        "model": "asset/FacultyEntity/Sports_Science.glb",
        "name": "Faculty of Sports Science",
        "scale": "250 250 250"
      }
    },
    "libraries": {
      "entityDentalLibrary": {
        "Environment Model": "f315-scene",
        "latitude": 3.115774,
        "longitude": 101.659985,
        "model": "asset/FacilitiesEntity/dental_lib.glb",
        "name": "UM Dental Library",
        "scale": "250 250 250"
      },
      "entityIslamicLibrary": {
        "Environment Model": "f315-scene",
        "latitude": 3.132277,
        "longitude": 101.657421,
        "model": "asset/FacilitiesEntity/islamic_lib.glb",
        "name": "Islamic Studies Library",
        "scale": "250 250 250"
      },
      "entityLawLibrary": {
        "Environment Model": "f315-scene",
        "latitude": 3.118624,
        "longitude": 101.653478,
        "model": "asset/FacilitiesEntity/law_lib.glb",
        "name": "Tan Sri Prof. Ahmad Ibrahim Law Library",
        "scale": "250 250 250"
      },
      "entityMedicalLibrary": {
        "Environment Model": "f315-scene",
        "latitude": 3.114301,
        "longitude": 101.653429,
        "model": "asset/FacilitiesEntity/medic_lib.glb",
        "name": "TJ Danaraj Medical Library",
        "scale": "250 250 250"
      },
      "entityUMLibrary": {
        "Environment Model": "f315-scene",
        "latitude": 3.120274,
        "longitude": 101.654513,
        "model": "asset/FacilitiesEntity/um_lib.glb",
        "name": "UM Main Library",
        "scale": "250 250 250"
      },
      "entityZabaLibrary": {
        "Environment Model": "f315-scene",
        "latitude": 3.118624,
        "longitude": 101.653478,
        "model": "asset/FacilitiesEntity/zaba_lib.glb",
        "name": "Za'ba Memorial Library",
        "scale": "250 250 250"
      }
    },
    "residentialColleges": {
      "entityKolej1": {
        "Environment Model": "f315-scene",
        "latitude": 3.117609,
        "longitude": 101.659361,
        "model": "asset/CollegeEntity/kk1.glb",
        "name": "Kolej Kediaman 1",
        "scale": "250 250 250"
      },
      "entityKolej10": {
        "Environment Model": "f315-scene",
        "latitude": 3.130641,
        "longitude": 101.650468,
        "model": "asset/CollegeEntity/kk10.glb",
        "name": "Kolej Kediaman 10",
        "scale": "250 250 250"
      },
      "entityKolej11": {
        "Environment Model": "f315-scene",
        "latitude": 3.129356,
        "longitude": 101.660511,
        "model": "asset/CollegeEntity/kk11.glb",
        "name": "Kolej Kediaman 11",
        "scale": "250 250 250"
      },
      "entityKolej12": {
        "Environment Model": "f315-scene",
        "latitude": 3.125649,
        "longitude": 101.660795,
        "model": "asset/CollegeEntity/kk12.glb",
        "name": "Kolej Kediaman 12",
        "scale": "250 250 250"
      },
      "entityKolej13": {
        "Environment Model": "f315-scene",
        "latitude": 3.120582,
        "longitude": 101.63961,
        "model": "asset/CollegeEntity/kk13.glb",
        "name": "Kolej Kediaman 13",
        "scale": "250 250 250"
      },
      "entityKolej2": {
        "Environment Model": "f315-scene",
        "latitude": 3.11822,
        "longitude": 101.657536,
        "model": "asset/CollegeEntity/kk2.glb",
        "name": "Kolej Kediaman 2",
        "scale": "250 250 250"
      },
      "entityKolej3": {
        "Environment Model": "f315-scene",
        "latitude": 3.12431,
        "longitude": 101.650715,
        "model": "asset/CollegeEntity/kk3.glb",
        "name": "Kolej Kediaman 3",
        "scale": "250 250 250"
      },
      "entityKolej4": {
        "Environment Model": "f315-scene",
        "latitude": 3.124872,
        "longitude": 101.649416,
        "model": "asset/CollegeEntity/kk4.glb",
        "name": "Kolej Kediaman 4",
        "scale": "250 250 250"
      },
      "entityKolej5": {
        "Environment Model": "f315-scene",
        "latitude": 3.127138,
        "longitude": 101.658605,
        "model": "asset/CollegeEntity/kk5.glb",
        "name": "Kolej Kediaman 5",
        "scale": "250 250 250"
      },
      "entityKolej6": {
        "Environment Model": "f315-scene",
        "latitude": 3.115498,
        "longitude": 101.654873,
        "model": "asset/CollegeEntity/kk6.glb",
        "name": "Kolej Kediaman 6",
        "scale": "250 250 250"
      },
      "entityKolej7": {
        "Environment Model": "f315-scene",
        "latitude": 3.126104,
        "longitude": 101.650415,
        "model": "asset/CollegeEntity/kk7.glb",
        "name": "Kolej Kediaman 7",
        "scale": "250 250 250"
      },
      "entityKolej8": {
        "Environment Model": "f315-scene",
        "latitude": 3.129827,
        "longitude": 101.649728,
        "model": "asset/CollegeEntity/kk8.glb",
        "name": "Kolej Kediaman 8",
        "scale": "250 250 250"
      },
      "entityKolej9": {
        "Environment Model": "f315-scene",
        "latitude": 3.120319,
        "longitude": 101.646064,
        "model": "asset/CollegeEntity/kk9.glb",
        "name": "Kolej Kediaman 9",
        "scale": "250 250 250"
      },
      "entityRumahUniversiti": {
        "Environment Model": "f315-scene",
        "latitude": 3.122223,
        "longitude": 101.65757,
        "model": "asset/CollegeEntity/InternationalHouse.glb",
        "name": "Rumah Universiti",
        "scale": "250 250 250"
      }
    },
    "sportsAndRecreation": {
      "entityKayaks": {
        "Environment Model": "f315-scene",
        "latitude": 3.119374,
        "longitude": 101.658671,
        "model": "asset/FacilitiesEntity/kayak.glb",
        "name": "Kayak at Varsity Lake UM",
        "scale": "250 250 250"
      },
      "entityLadangMini": {
        "Environment Model": "f315-scene",
        "latitude": 3.12819,
        "longitude": 101.660865,
        "model": "asset/FacilitiesEntity/isb.glb",
        "name": "Ladang Mini ISB UM",
        "scale": "250 250 250"
      },
      "entityMustafaRiver": {
        "Environment Model": "f315-scene",
        "latitude": 3.125919,
        "longitude": 101.658998,
        "model": "asset/FacilitiesEntity/sungai.glb",
        "name": "Mustafa River UM",
        "scale": "250 250 250"
      },
      "entityPadangC": {
        "Environment Model": "f315-scene",
        "latitude": 3.120177,
        "longitude": 101.660135,
        "model": "asset/FacilitiesEntity/padang_c.glb",
        "name": "Padang C UM",
        "scale": "250 250 250"
      },
      "entityRimbaIlmu": {
        "Environment Model": "f315-scene",
        "latitude": 3.130697,
        "longitude": 101.658203,
        "model": "asset/FacilitiesEntity/rimba_ilmu.glb",
        "name": "Rimba Ilmu Botanical Garden UM",
        "scale": "250 250 250"
      },
      "entitySwimmingPool": {
        "Environment Model": "f315-scene",
        "latitude": 3.128806,
        "longitude": 101.659803,
        "model": "asset/FacilitiesEntity/pool.glb",
        "name": "Swimming Pool UM Sports Center",
        "scale": "250 250 250"
      },
      "entityUMArenaStadium": {
        "Environment Model": "f315-scene",
        "latitude": 3.130895,
        "longitude": 101.65969,
        "model": "asset/FacilitiesEntity/um_arena.glb",
        "name": "UM Arena Stadium",
        "scale": "250 250 250"
      },
      "entityUMPark": {
        "Environment Model": "f315-scene",
        "latitude": 3.119047,
        "longitude": 101.660017,
        "model": "asset/FacilitiesEntity/um_park.glb",
        "name": "UM Park",
        "scale": "250 250 250"
      },
      "entityUMSportsCentre": {
        "Environment Model": "f315-scene",
        "latitude": 3.129872,
        "longitude": 101.660018,
        "model": "asset/FacilitiesEntity/um_sports_center.glb",
        "name": "UM Sports Centre",
        "scale": "250 250 250"
      },
      "entityUMWallSquash": {
        "Environment Model": "f315-scene",
        "latitude": 3.131988,
        "longitude": 101.658011,
        "model": "asset/FacilitiesEntity/squash.glb",
        "name": "UM Wall Squash Complex",
        "scale": "250 250 250"
      },
      "entityVarsityGreen": {
        "Environment Model": "f315-scene",
        "latitude": 3.120477,
        "longitude": 101.659148,
        "model": "asset/FacilitiesEntity/varsity_green.glb",
        "name": "UM Varsity Green",
        "scale": "250 250 250"
      }
    }
  }
}