{"entities": {
  "facilities": {
    "entityAcademyIslam": {
      "Environment Model": "f315-scene",
      "latitude": 3.132754,
      "longitude": 101.657415,
      "model": "asset/FacilitiesEntity/surau.glb",
      "name": "Academy of Islamic Studies Musolla",
      "scale": "250 250 250"
    },
    "entityAidil": {
      "Environment Model": "asset/FacultyEntity/Education.glb",
      "latitude": 3.129456,
      "longitude": 101.649293,
      "model": "asset/FacilitiesEntity/dtc.glb",
      "name": "E307",
      "scale": "250 250 250"
    },
    "entityBangunanCanseleri": {
      "Environment Model": "f315-scene",
      "latitude": 3.120445,
      "longitude": 101.657636,
      "model": "asset/FacilitiesEntity/chancelerry.glb",
      "name": "Bangunan Canseleri",
      "scale": "250 250 250"
    },
    "entityBankIslam": {
      "Environment Model": "f315-scene",
      "latitude": 3.122143,
      "longitude": 101.656503,
      "model": "asset/FacilitiesEntity/bank_islam.glb",
      "name": "Bank Islam",
      "scale": "250 250 250"
    },
    "entityDTC": {
      "Environment Model": "f315-scene",
      "latitude": 3.121436,
      "longitude": 101.65706,
      "model": "asset/FacilitiesEntity/dtc.glb",
      "name": "Dewan Tunku Canselor (DTC)",
      "scale": "250 250 250"
    },
    "entityExamHall": {
      "Environment Model": "f315-scene",
      "latitude": 3.115147,
      "longitude": 101.658086,
      "model": "asset/FacilitiesEntity/exam_hall.glb",
      "name": "Examination Hall",
      "scale": "250 250 250"
    },
    "entityKPS": {
      "Environment Model": "f315-scene",
      "latitude": 3.121125,
      "longitude": 101.655145,
      "model": "asset/FacilitiesEntity/kps.glb",
      "name": "KPS Complex",
      "scale": "250 250 250"
    },
    "entityMasjid": {
      "Environment Model": "f315-scene",
      "latitude": 3.117938,
      "longitude": 101.662769,
      "model": "asset/FacilitiesEntity/masjid.glb",
      "name": "Masjid Ar-Rahman",
      "scale": "250 250 250"
    },
    "entityPanggung": {
      "Environment Model": "f315-scene",
      "latitude": 3.121522,
      "longitude": 101.656079,
      "model": "asset/FacilitiesEntity/panggung_eks.glb",
      "name": "Panggung Eksperimen",
      "scale": "250 250 250"
    },
    "entityTemple": {
      "Environment Model": "f315-scene",
      "latitude": 3.127944,
      "longitude": 101.660709,
      "model": "asset/FacilitiesEntity/temple.glb",
      "name": "Sri Sivan Temple",
      "scale": "250 250 250"
    },
    "entityUMCentral": {
      "Environment Model": "f315-scene",
      "latitude": 3.120975,
      "longitude": 101.653585,
      "model": "asset/FacilitiesEntity/um_central.glb",
      "name": "UM Central",
      "scale": "250 250 250"
    },
    "entityUser": {
      "Environment Model": "asset/FacultyEntity/Education.glb",
      "latitude": 3.129264,
      "longitude": 101.649731,
      "model": "asset/FacilitiesEntity/um_central.glb",
      "name": "F315",
      "scale": "250 250 250"
    }
  }

}}